,name,lat,lng,vicinity,city
0,Northern Chemicals,18.8074282,98.9719289,"Chang Phueak, Mueang Chiang Mai District","RX4C+XQ Chiang Mai, Mueang Chiang Mai District, Chiang Mai"
1,World Chemical,18.7625521,98.99455329999999,"ป่าแดด 261/3-6, ถนนมหิดล, ตำบลป่าแดด อำเภอเมืองเชียงใหม่ เมือง","QX7V+2R Pa Daet Sub-district, Mueang Chiang Mai District, Chiang Mai"
2,BBT CHEMICAL,18.741392,98.9721024,"175/1 Somphot Chiang Mai 700 Pi Rd, Pa Daet Sub-district, Mueang Chiang Mai District","PXRC+HR Pa Daet Sub-district, Mueang Chiang Mai District, Chiang Mai"
3,หจก.นอร์ทเทอร์นเคมิเคิล แอนด์ กลาสแวร์,18.8073057,98.9714965,"Chang Phueak, Mueang Chiang Mai District","RX4C+WH Chiang Mai, Mueang Chiang Mai District, Chiang Mai"
4,ร้านป่าไผ่การเกษตรและเคมีภัณฑ์,18.827377,99.18038399999999,หมู่ 2 บ้าน ป่า ไผ่ แม่โป่ง ดอยสะเก็ด,"R5GJ+X5 Mae Pong, Doi Saket District, Chiang Mai"
5,"บริษัท เคมีก้า อินโนเวชั่น จำกัด © Chemika Innovation Co., Ltd.",18.7336348,99.1121656,"หมู่ที่ 8 244 Chae Chang, San Kamphaeng District","P4M6+FV San Kamphaeng, San Kamphaeng District, Chiang Mai"
6,World Chemical,18.5532165,99.0474163,"109 หมู่ 2 Pa Sak, Mueang Lamphun District","H23W+7X Pa Sak, Mueang Lamphun District, Lamphun"
7,"United Chemical and Trading Co.,Ltd.",18.7561899,99.0005401,โครงการ K-Park เลขที่ 111 18 ซอย 2 อ.เมือง,"Q242+F6 Pa Daet Sub-district, Mueang Chiang Mai District, Chiang Mai"
8,บมจ.พีรพัฒน์ เทคโนโลยี สาขาเชียงใหม่,18.7429878,99.0081944,"369 หมู่ 1 ถนนวงแหวนรอบกลาง Nong Phueng, Saraphi District","P2V5+57 Nong Phueng, Saraphi District, Chiang Mai"
9,M. V. K. Chemical Company Limited,18.6669544,99.0935875,"Ban Thi, Ban Thi District","M38V+QC Ban Thi, Ban Thi District, Lamphun"
10,United Chemical and Trading Company Limited,18.7555408,99.0007262,"111/18 โครงการ K-Park Mahidol Rd, อ.เมือง","Q242+67 Pa Daet Sub-district, Mueang Chiang Mai District, Chiang Mai"
11,053 Chemical Brothers Barber & Salon,18.7956663,98.9715576,"16/1 Siri Mangkalajarn Rd Lane 5, Tambon Su Thep, อ.เมือง","QXWC+7J Chiang Mai, Mueang Chiang Mai District, Chiang Mai"
12,Bavornpon Chemical,18.6397746,99.04178789999999,232 อำเภอเมือง Mueang Lamphun District,"J2QR+WP Umong, Mueang Lamphun District, Lamphun"
13,"C.M. Chemical & Lab Supplies LTD.,PART",18.807805,98.9789196,"11 Chotana Soi 6, ต.ช้างเผือก Mueang Chiang Mai District","RX5H+4H Chiang Mai, Mueang Chiang Mai District, Chiang Mai"
14,"M.V. Chemical Co., Ltd.",18.66771,99.093396,"Ban Thi, Ban Thi, Lamphun, 51180","M39V+39 Ban Thi, Ban Thi District, Lamphun"
15,ไพศาล พาณิชย์ การเกษตร,18.6856643,99.14077879999999,"15 ม.10 Huai Yap, Ban Thi District","M4PR+78 Huai Yap, Ban Thi District, Lamphun"
16,ห้างหุ้นส่วนจำกัดนอร์ทเทอร์นเคมิเคิล,18.8073208,98.9714793,154/2 หมู่ 2 ถ ถนน ซุปเปอร์ไฮเวย์ เชียงใหม่-ลำปาง Mueang Chiang Mai District,"RX4C+WH Chiang Mai, Mueang Chiang Mai District, Chiang Mai"
17,บริษัทลิ้มศักดากุลเคมีเกษตร จำกัด(ท่ารั้ว),18.8012571,99.06372739999999,"Chiang Mai Outer Ring Rd, สันปูเลย ดอยสะเก็ด","R327+GF San Pu Loei, Doi Saket District, Chiang Mai"
18,Paphada Cosmetic,18.7808318,99.0910883,"Ton Pao, San Kamphaeng District","Q3JR+8C Mae Khue, Doi Saket District, Chiang Mai"
19,ไอบัท เอเซีย จำกัด,18.84411,99.0861012,"133/110 Soi Mu Ban Ban Thawi Chok 3, Talat Khwan, Doi Saket District","R3VP+JC Talat Khwan, Doi Saket District, Chiang Mai"
20,Northern Chemicals,18.8074282,98.9719289,"Chang Phueak, Mueang Chiang Mai District","RX4C+XQ Chiang Mai, Mueang Chiang Mai District, Chiang Mai"
21,World Chemical,18.7625521,98.99455329999999,"ป่าแดด 261/3-6, ถนนมหิดล, ตำบลป่าแดด อำเภอเมืองเชียงใหม่ เมือง","QX7V+2R Pa Daet Sub-district, Mueang Chiang Mai District, Chiang Mai"
22,BBT CHEMICAL,18.741392,98.9721024,"175/1 Somphot Chiang Mai 700 Pi Rd, Pa Daet Sub-district, Mueang Chiang Mai District","PXRC+HR Pa Daet Sub-district, Mueang Chiang Mai District, Chiang Mai"
23,หจก.นอร์ทเทอร์นเคมิเคิล แอนด์ กลาสแวร์,18.8073057,98.9714965,"Chang Phueak, Mueang Chiang Mai District","RX4C+WH Chiang Mai, Mueang Chiang Mai District, Chiang Mai"
24,ร้านป่าไผ่การเกษตรและเคมีภัณฑ์,18.827377,99.18038399999999,หมู่ 2 บ้าน ป่า ไผ่ แม่โป่ง ดอยสะเก็ด,"R5GJ+X5 Mae Pong, Doi Saket District, Chiang Mai"
25,"บริษัท เคมีก้า อินโนเวชั่น จำกัด © Chemika Innovation Co., Ltd.",18.7336348,99.1121656,"หมู่ที่ 8 244 Chae Chang, San Kamphaeng District","P4M6+FV San Kamphaeng, San Kamphaeng District, Chiang Mai"
26,World Chemical,18.5532165,99.0474163,"109 หมู่ 2 Pa Sak, Mueang Lamphun District","H23W+7X Pa Sak, Mueang Lamphun District, Lamphun"
27,"United Chemical and Trading Co.,Ltd.",18.7561899,99.0005401,โครงการ K-Park เลขที่ 111 18 ซอย 2 อ.เมือง,"Q242+F6 Pa Daet Sub-district, Mueang Chiang Mai District, Chiang Mai"
28,บมจ.พีรพัฒน์ เทคโนโลยี สาขาเชียงใหม่,18.7429878,99.0081944,"369 หมู่ 1 ถนนวงแหวนรอบกลาง Nong Phueng, Saraphi District","P2V5+57 Nong Phueng, Saraphi District, Chiang Mai"
29,United Chemical and Trading Company Limited,18.7555408,99.0007262,"111/18 โครงการ K-Park Mahidol Rd, อ.เมือง","Q242+67 Pa Daet Sub-district, Mueang Chiang Mai District, Chiang Mai"
30,M. V. K. Chemical Company Limited,18.6669544,99.0935875,"Ban Thi, Ban Thi District","M38V+QC Ban Thi, Ban Thi District, Lamphun"
31,"C.M. Chemical & Lab Supplies LTD.,PART",18.807805,98.9789196,"11 Chotana Soi 6, ต.ช้างเผือก Mueang Chiang Mai District","RX5H+4H Chiang Mai, Mueang Chiang Mai District, Chiang Mai"
32,053 Chemical Brothers Barber & Salon,18.7956663,98.9715576,"16/1 Siri Mangkalajarn Rd Lane 5, Tambon Su Thep, อ.เมือง","QXWC+7J Chiang Mai, Mueang Chiang Mai District, Chiang Mai"
33,Bavornpon Chemical,18.6397746,99.04178789999999,232 อำเภอเมือง Mueang Lamphun District,"J2QR+WP Umong, Mueang Lamphun District, Lamphun"
34,"M.V. Chemical Co., Ltd.",18.66771,99.093396,"Ban Thi, Ban Thi, Lamphun, 51180","M39V+39 Ban Thi, Ban Thi District, Lamphun"
35,ไพศาล พาณิชย์ การเกษตร,18.6856643,99.14077879999999,"15 ม.10 Huai Yap, Ban Thi District","M4PR+78 Huai Yap, Ban Thi District, Lamphun"
36,ห้างหุ้นส่วนจำกัดนอร์ทเทอร์นเคมิเคิล,18.8073208,98.9714793,154/2 หมู่ 2 ถ ถนน ซุปเปอร์ไฮเวย์ เชียงใหม่-ลำปาง Mueang Chiang Mai District,"RX4C+WH Chiang Mai, Mueang Chiang Mai District, Chiang Mai"
37,Paphada Cosmetic,18.7808318,99.0910883,"Ton Pao, San Kamphaeng District","Q3JR+8C Mae Khue, Doi Saket District, Chiang Mai"
38,ไอบัท เอเซีย จำกัด,18.84411,99.0861012,"133/110 Soi Mu Ban Ban Thawi Chok 3, Talat Khwan, Doi Saket District","R3VP+JC Talat Khwan, Doi Saket District, Chiang Mai"
39,เชียงใหม่โอ.พี.เอส. เคมีภัณฑ์,18.7892811,99.0085811,"373/14 ซอย เชียงใหม่-ลำพูน 3 Wat Ket, Mueang Chiang Mai District","Q2Q5+PC Chiang Mai, Mueang Chiang Mai District, Chiang Mai"
40,"Chemical House & Lab Instrument Co.,LTD",13.7615811,100.6028474,"98 ซอย รามคำแหง 21 Phlabphla, Wang Thonglang",QJ63+J4 Bangkok
41,Chemical Asia Company Limited,13.6606763,100.6272467,"12/15 Sukhumvit Rd, Bang Na , 10260, Bang Na",MJ6G+7V Bangkok
42,Indorama Chemicals (Thailand) Ltd.,13.7428327,100.5615333,"75/64-65 Ocean Tower 2, 28th Floor, Sukhumvit 19, Asoke Rd., Klongtoey Nuer Wattana, Bangkok 10110",PHV6+4J Bangkok
43,MC Industrial Chemical Company Limited,13.7408246,100.505514,"180-184 ถนน ราชวงศ์ Chakkrawat, Samphanthawong",PGR4+86 Bangkok
44,Superior Chemical Industry (Thailand) Company Limited,13.7680492,100.6089008,Bangkok,QJ95+6H Bangkok
45,"Siam Chemical Industry Co., Ltd.",13.7409059,100.5615844,"159/34 Serm-Mit Tower 20th Floor, Road (Asoke), North Klongtoey, Wattana,, 21 Sukhumvit Rd",PHR6+9J Bangkok
46,President Chemical Company Limited,13.729074,100.5260154,"54/15-17 Thanon Surawong, Si Phraya, Bang Rak",PGHG+JC Bangkok
47,"NP CHEMICAL SUPPLY CO.,LTD.",13.7732422,100.3868648,เลขที่ 42/1 ซอยมณฑลทอง หมู่ 19 ถนนพุทธมณฑล 2 แขวงศาลาธรรมสพน์ Thawi Watthana,Q9FP+7P Bangkok
48,"บริษัท วี.ซี. เคมิคอลส์ จำกัด V.C. Chemicals Co., Ltd",13.7075456,100.5318968,"178 Soi Chan 16, Thung Wat Don, Sathon",PG5J+2Q Bangkok
49,SCG Chemicals,13.8058794,100.5375315,"1 Siam Cement Alley, Bang Sue",RG4Q+92 Bangkok
50,บจก. ดาว เคมิคอล ประเทศไทย,13.71804,100.590477,"75 อาคารไวท์กรุ๊ป 2, ถนนสุขุมวิท 42, แขวงพระโขนง เขตคลองเตย กทม, 10110",PH9R+65 Bangkok
51,Eastman Chemical Company,13.7586884,100.5678816,"33/4 The 9th Tower Grand Rama 9, Tower A, 24th Fl., TNA 05, Rama IX Rd, Huai Khwang",QH59+F5 Bangkok
52,Civic Chemical LP.,13.687625,100.6872808,28/1 ซ.เฉลิมพระเกียรติฯ 30 แยก 15 แขวงดอกไม้,MMQP+2W Bangkok
53,บริษัท เอส.เค.เอ็ม.เคมีคอล จำกัด,13.7490091,100.5112416,"45/7 ซอยเฉลิมเขตร์ 2 ถนนเฉลิมเขตร์ 3 Wat Thepsirin, Pom Prap Sattru Phai",none
54,T.J.K. Chemical Company Limited,13.662544,100.6374942,103 ซอย 7 Bang Na,MJ7P+2X Bangkok
55,"S.M.Chemical Supplies Co.,Ltd.",13.7887567,100.6288392,3/1-2 SMC Building Ladprao 101 Raod Klongjan Bang Kapi District,QJQH+GG Bangkok
56,Nitro Chemical Industry LTD. (Branch 1),13.747523,100.5194937,"24 Rama I Rd, Rong Muang, Pathum Wan District",PGX9+2Q Bangkok
57,"Thepthai Chemical Corp.,Ltd.",13.6698401,100.6219947,"หมู่ที่ 12 21/573 Bang Na-Trat Frontage Rd, Bang Na",MJ9C+WQ Bangkok
58,Pitiwat Chemical Service,13.743417,100.5448178,"Ploen Chit Tower, 898 Phloen Chit Rd, Pathum Wan District",PGVV+9W Bangkok
59,"U.B. Chemical Industries Co.,Ltd.",13.7286062,100.5161735,"1095/1101 Soi Charoenkrung 41, Charoenkrung Road, Si Phraya, Khet Bang Rak, Bangkok, 10500",PGH8+CF Bangkok
60,"Crystal case chemical Part.,Ltd",14.975714,102.125687,333/61 Moo7 Amper Muang-Nakornratchasima,"X4GG+77 Nakhon Ratchasima, Nai Mueang, Mueang Nakhon Ratchasima District, Nakhon Ratchasima"
61,ห้างหุ้นส่วนจำกัด เจ เจ เคมิคอล,14.9766898,102.0924936,"273 Suranaree Rd, Tambon Nai Mueang, Mueang Nakhon Ratchasima District","X3GR+MX Nakhon Ratchasima, Nai Mueang, Mueang Nakhon Ratchasima District, Nakhon Ratchasima"
62,ลำลูกกาเคมีภัณฑ์ สาขาโคราช,15.0228943,102.1347024,"291/5-291 Cho Ho, เมืองนครราชสีมา","24FM+5V Ban Ko, Mueang Nakhon Ratchasima District, Nakhon Ratchasima"
63,บจก.สีมาอินเตอร์,14.901425,102.1580649,"Unnamed Road Nong Bua Sala, Mueang Nakhon Ratchasima District","W525+H6 Nong Bua Sala, Mueang Nakhon Ratchasima District, Nakhon Ratchasima"
64,บริษัท อะควาทรีท เคมิคอล จำกัด,15.0857439,102.1862945,"Nong Khai Nam, Mueang Nakhon Ratchasima District","35PP+7G Nong Khai Nam, Mueang Nakhon Ratchasima District, Nakhon Ratchasima"
65,บริษัท อะกรี ดีเวลลอปเม้นท์ จำกัด,14.9930286,101.6840683,"Nong Bua Noi, Sikhio District","XMVM+6J Nong Bua Noi, Sikhio District, Nakhon Ratchasima"
66,บ.ยูนิไลฟ์ สาขาโคราช,14.9874611,102.095746,230/4 ราชสีมา อ เว นิ ว ถ มิตรภาพ หนองคาย อ เมือง,"X3PW+X7 Nakhon Ratchasima, Nai Mueang, Mueang Nakhon Ratchasima District, Nakhon Ratchasima"
67,บริษัท ที. เค. ปุ๋ยอินทรีย์ชีวภาพ จำกัด,15.289745,102.329949,เลขที่ 423 หมู่ 4 บ้านหนองม้า ตำบลมะค่า Non Sung District,"78QH+VX Makha, Non Sung District, Nakhon Ratchasima"
68,ยูเอซี แอ็ดวานซ์ โพลิเมอร์ แอนด์ เคมิคัลส์ จำกัด,14.9442902,101.6803746,"50 หมู่3 ถนนสีคิ้ว กม.7.5 Sikhio, Amphoe Dan Khun Thot","WMVJ+P4 Sikhio, Sikhio District, Nakhon Ratchasima"
69,หจก.ศิริเกษตร ปักธงชัย,14.73968,102.0318777,"137​ หมู่​8​ Sueb Siri Rd, Mueang Pak, Pak Thong Chai District","P2QJ+VQ Mueang Pak, Pak Thong Chai District, Nakhon Ratchasima"
70,บริษัท สุรเกษตร 007 จำกัด,14.9859735,102.0976823,183/7 ถนน มหาราช ตำบล ในเมือง Mueang Nakhon Ratchasima District,"X3PX+93 Nakhon Ratchasima, Nai Mueang, Mueang Nakhon Ratchasima District, Nakhon Ratchasima"
71,ห้างหุ้นส่วนจำกัด พี ภูตะวัน 2006,14.9053159,101.9629856,"110 หมู่ที่ 13 Khok Kruat, Mueang Nakhon Ratchasima District","WX47+45 Khok Kruat, Mueang Nakhon Ratchasima District, Nakhon Ratchasima"
72,ร้านคุณปุ๋ย,14.8389661,101.7654069,"84/6 ถ สาย 24, Makluea Mai, Sung Noen District","RQQ8+H5 Makluea Mai, Sung Noen District, Nakhon Ratchasima"
73,ศิริโชคการเกษตร โดยนายสมโภชน์ นามประสิทธิ์,14.8400623,102.0832543,อำเภอเมือง Mueang Nakhon Ratchasima District,none
74,โรงบรรจุก๊าซ สูงเนินอ๊อกซิเจน,14.8733026,101.840311,"VRFR+84, Sung Noen, Sung Noen District",none
75,แสงทวีการเกษตร,15.2109102,101.7681877,"Dan Khun Thot, Dan Khun Thot District","6Q69+97 Dan Khun Thot, Dan Khun Thot District, Nakhon Ratchasima"
76,บ.โคยามา,14.9200137,102.1843757,"Nong Ra Wiang, Mueang Nakhon Ratchasima District","W5CM+2Q Nong Ra Wiang, Mueang Nakhon Ratchasima District, Nakhon Ratchasima"
77,สูงเนินอ๊อกซิเจน,14.8730701,101.8404964,139 Sung Noen District,"VRFR+65 Sung Noen, Sung Noen District, Nakhon Ratchasima"
78,SHC Korat,14.8768034,102.1682995,"Nong Bua Sala, Mueang Nakhon Ratchasima District","V5G9+P8 Nong Bua Sala, Mueang Nakhon Ratchasima District, Nakhon Ratchasima"
79,แสงทวีคลังเกษตร 2,15.1816093,101.7520582,ต ด่านขุนทด อ ด่าน ทด,"5QJ2+JR Dan Khun Thot, Dan Khun Thot District, Nakhon Ratchasima"
80,Si Nakhon Chemical Supplies,15.795111,104.145541,"310 312 ถ U-Thai Ramrit Rd, Nai Mueang, Mueang Yasothon District","Q4WW+26 Nai Mueang, Mueang Yasothon District, Yasothon"
81,ศูนย์บริการนิวเฟิร์สไลฟ์จังหวัดยโสธร,15.829435,104.1146612,"336/10-11 ม 2 Samran, Mueang Yasothon District","R4H7+QV Samran, Mueang Yasothon District, Yasothon"
82,Nathee Chemical Supplies,15.7882363,104.1500001,"Nai Mueang, Mueang Yasothon District","Q5Q2+72 Nai Mueang, Mueang Yasothon District, Yasothon"
83,Theera Chemical Supplies,15.7908159,104.1471141,"Nai Mueang, Mueang Yasothon District","Q4RW+8R Nai Mueang, Mueang Yasothon District, Yasothon"
84,วิสาหกิจชุมชนเกษตรอินทรีย์บ้านคำครตา,15.9615802,104.1143082,"Unnamed Road,, Dong Mafai, Sai Mun District","X467+JP Dong Mafai, Sai Mun District, Yasothon"
85,ป.รุ่งเรือง,15.8583752,104.5151983,"53 ม.3, ถ.อรุณประเสริฐ, ต.นายม อ.เมืองอำนาจเจริญ จ.อำนาจเจริญ , 37000","VG58+93 Na Yom, Mueang Amnat Charoen District, Amnat Charoen"
86,สหกรณ์การเกษตรพนมไพร จำกัด,15.6835312,104.1076845,"Phanom Phrai, Phanom Phrai District","M4M5+C3 Phanom Phrai, Phanom Phrai District, Roi Et"
87,Caltex,15.4484185,103.7589523,"Thung Luang, Suwannaphum District","CQX5+9H Thung Luang, Suwannaphum District, Roi Et"
88,PTT (Yasothon Oil Company Limited),15.81544,104.1285682,"Samran, Mueang Yasothon District","R48H+5C Samran, Mueang Yasothon District, Yasothon"
89,วัตสันบิ๊กซี สุวรรณภูมิ ร้อยเอ็ด : WATSONS BIG C SUVARNABHUMI ROI-ET : Click & Collect,15.597824,103.8079271,"12 บิ๊กซี สุวรรณภูมิ ร้อยเอ็ด หมู่ที่ 5 Sa Khu, Suwannaphum District","HRX5+45 Sa Khu, Suwannaphum District, Roi Et"
90,Shell รุ่งเจริญออยล์,15.7942732,104.2213309,"เลขที่ 161 หมู่ 5 หมู่บ้าน สะเดา Arun Prasert Rd, Tat Thong, Mueang Yasothon District","Q6VC+PG Tat Thong, Mueang Yasothon District, Yasothon"
91,Chemical Asia Company Limited,13.6606763,100.6272467,"12/15 Sukhumvit Rd, Bang Na , 10260, Bang Na",MJ6G+7V Bangkok
92,"บริษัท เอกไทย เคมี จำกัด - YA THAI CHEMICAL CO., LTD.",13.473178,101.015142,78/9 หมู่ 5 ท่าข้าม บางปะกง,"F2F8+73 Bang Nang, Phan Thong District, Chon Buri"
93,Civic Chemical LP.,13.687625,100.6872808,28/1 ซ.เฉลิมพระเกียรติฯ 30 แยก 15 แขวงดอกไม้,MMQP+2W Bangkok
94,Diachrome Chemical Company Limited,13.5484811,100.6504242,"386 Phatthana 3 Rd, Phraeksa, Mueang Samut Prakan District","GMX2+95 Phraeksa, Mueang Samut Prakan District, Samut Prakan"
95,T.J.K. Chemical Company Limited,13.662544,100.6374942,103 ซอย 7 Bang Na,MJ7P+2X Bangkok
96,"Hanwha Chemical (Thailand) Co.,Ltd.",13.5521553,100.7900146,"377 หมู่ 17 Bang Na-Trat Rd, Bang Sao Thong, Bang Sao Thong District","HQ2R+V2 Bang Sao Thong, Bang Sao Thong District, Samut Prakan"
97,"Thepthai Chemical Corp.,Ltd.",13.6698401,100.6219947,"หมู่ที่ 12 21/573 Bang Na-Trat Frontage Rd, Bang Na",MJ9C+WQ Bangkok
98,เคมิคอล พลัส,13.7414769,100.6275103,"999, 99 Rama IX Rd, Suan Luang",PJRH+H2 Bangkok
99,"S.M.Chemical Supplies Co.,Ltd.",13.7887567,100.6288392,3/1-2 SMC Building Ladprao 101 Raod Klongjan Bang Kapi District,QJQH+GG Bangkok
100,บริษัท เคมิคอล อินโนเวฃั่น จำกัด,13.7588871,100.6333909,"4 ซอยรามคำแหง 30 ถ.รามคำแหง, แขวงหัวหมาก เขตบางกะปิ กรุงเทพฯ, 10240",QJ5M+H9 Bangkok
101,บริษัท เคมิคอล วิลเลจ จำกัด,13.6067023,100.6856229,"20/2 (บี4) หมู่4 Thepharak Rd, ตำบลบางพลีใหญ่ Bang Phli District","JM4P+M6 Bang Phli Yai, Bang Phli District, Samut Prakan"
102,Thai Kiwa Chemicals,13.5711984,100.7964935,"155/1 หมู่ 17 นิคมอุสาหกรรมบางพลี ซอย 5/2 กิ่ง, Bang Sao Thong, Bang Sao Thong District","HQCW+FH Bang Sao Thong, Bang Sao Thong District, Samut Prakan"
103,SRD CHEMICALS,13.8549576,100.7220699,"594 16 ถ. หทัยราษฎร์ Bang Chan, Khlong Sam Wa",VP3C+XR Bangkok
104,"Siam Chemical Industry Co.,Ltd.",13.5286776,100.642404,"549 Sukhumvit Rd, ต.บางปูใหม่ อ.เมืองฯ","GJHR+FX Bang Pu Mai, Mueang Samut Prakan District, Samut Prakan"
105,"C.S.Chemical Services Co.,Ltd",13.9276012,100.8133593,"33/2 หมู่7 Khlong Sip Song, Nong Chok",WRH7+28 Bangkok
106,Bara Chemical Co .LTD.,13.5420456,100.6476919,"หมู่ที่ 4 225 Sukhumvit Rd, Phraeksa, Mueang Samut Prakan District","GJRX+R3 Phraeksa, Mueang Samut Prakan District, Samut Prakan"
107,"Pure Chemicals Co.,LTD.",13.7511777,100.6421777,"Hua Mak, Bang Kapi District",QJ2R+FV Bangkok
108,"Summit Chemical Co., Ltd.",13.684408,100.6477314,"2 อาคารพรีเมียร์เพลส ชั้น 5 Soi Srinagarindra 57, Nong Bon, Prawet",MJMX+Q3 Bangkok
109,"บจก. แมสเวลล์ เคมีคอล กรุ๊ป (Masswell Chemical Group Co., Ltd.)",13.6886348,100.6856262,37 ถ.เฉลิมพระเกียรติ ร 9 ซอย 30 แยก 13 ดอกไม้ Prawet,MMQP+F7 Bangkok
110,"Xeon Chemical Asia Co.,LTD.",13.5806208,100.691662,"หมู่ที่ 21 109/84 ถนน เทพารักษ์ Bang Phli Yai, Bang Phli District","HMJR+6M Phraek Sa Mai, Mueang Samut Prakan District, Samut Prakan"
111,"Chemical House & Lab Instrument Co.,LTD",13.7615811,100.6028474,"98 ซอย รามคำแหง 21 Phlabphla, Wang Thonglang",QJ63+J4 Bangkok
112,Chemical Asia Company Limited,13.6606763,100.6272467,"12/15 Sukhumvit Rd, Bang Na , 10260, Bang Na",MJ6G+7V Bangkok
113,Indorama Chemicals (Thailand) Ltd.,13.7428327,100.5615333,"75/64-65 Ocean Tower 2, 28th Floor, Sukhumvit 19, Asoke Rd., Klongtoey Nuer Wattana, Bangkok 10110",PHV6+4J Bangkok
114,Superior Chemical Industry (Thailand) Company Limited,13.7680492,100.6089008,Bangkok,QJ95+6H Bangkok
115,"Siam Chemical Industry Co., Ltd.",13.7409059,100.5615844,"159/34 Serm-Mit Tower 20th Floor, Road (Asoke), North Klongtoey, Wattana,, 21 Sukhumvit Rd",PHR6+9J Bangkok
116,President Chemical Company Limited,13.729074,100.5260154,"54/15-17 Thanon Surawong, Si Phraya, Bang Rak",PGHG+JC Bangkok
117,SCG Chemicals,13.8058794,100.5375315,"1 Siam Cement Alley, Bang Sue",RG4Q+92 Bangkok
118,"บริษัท วี.ซี. เคมิคอลส์ จำกัด V.C. Chemicals Co., Ltd",13.7075456,100.5318968,"178 Soi Chan 16, Thung Wat Don, Sathon",PG5J+2Q Bangkok
119,บจก. ดาว เคมิคอล ประเทศไทย,13.71804,100.590477,"75 อาคารไวท์กรุ๊ป 2, ถนนสุขุมวิท 42, แขวงพระโขนง เขตคลองเตย กทม, 10110",PH9R+65 Bangkok
120,Eastman Chemical Company,13.7586884,100.5678816,"33/4 The 9th Tower Grand Rama 9, Tower A, 24th Fl., TNA 05, Rama IX Rd, Huai Khwang",QH59+F5 Bangkok
121,Civic Chemical LP.,13.687625,100.6872808,28/1 ซ.เฉลิมพระเกียรติฯ 30 แยก 15 แขวงดอกไม้,MMQP+2W Bangkok
122,"Thepthai Chemical Corp.,Ltd.",13.6698401,100.6219947,"หมู่ที่ 12 21/573 Bang Na-Trat Frontage Rd, Bang Na",MJ9C+WQ Bangkok
123,Utica Chemical Co. Ltd.,13.719568,100.6022209,"184 Pridi Banomyong 14 Alley, Phra Khanong Nuea, Watthana",PJ92+RV Bangkok
124,"S.M.Chemical Supplies Co.,Ltd.",13.7887567,100.6288392,3/1-2 SMC Building Ladprao 101 Raod Klongjan Bang Kapi District,QJQH+GG Bangkok
125,T.J.K. Chemical Company Limited,13.662544,100.6374942,103 ซอย 7 Bang Na,MJ7P+2X Bangkok
126,Pitiwat Chemical Service,13.743417,100.5448178,"Ploen Chit Tower, 898 Phloen Chit Rd, Pathum Wan District",PGVV+9W Bangkok
127,"Petch Thai Chemical Co.,Ltd.",13.7027599,100.5403965,"15 Naradhiwat Rajanagarindra Rd, Chong Nonsi, Yan Nawa",PG3R+45 Bangkok
128,"บริษัท เอกไทย เคมี จำกัด - YA THAI CHEMICAL CO., LTD.",13.473178,101.015142,78/9 หมู่ 5 ท่าข้าม บางปะกง,"F2F8+73 Bang Nang, Phan Thong District, Chon Buri"
129,"Chemex Co.,LTD.",13.7534333,100.5324662,"19 Phayathai Rd, Bangkok",QG3J+9X Bangkok
130,AGC Chemicals (Thailand) Company Limited,13.6127291,100.5488594,"1 ซอยสุขสวัสดิ์ 80 Pak Khlong Bang Pla Kot, Phra Samut Chedi District","JG7X+3G Pak Khlong Bang Pla Kot, Phra Samut Chedi District, Samut Prakan"
131,"A.T. Chemical Co.,Ltd.",13.705955,100.360596,6/1183 ถนนเพชนเกษม77 ถนนเพชรเกษม แขวงหนองแขมพลู Nong Khaem,P946+96 Bangkok
132,Proofcoat Chemical Company Limited,14.1074244,100.3034236,"23/9 Moo11, Tambol Saiyai, Amphoe Sainoi, Nonthaburi, 11150","4843+X9 Sai Yai, Sai Noi District, Nonthaburi"
133,"NP CHEMICAL SUPPLY CO.,LTD.",13.7732422,100.3868648,เลขที่ 42/1 ซอยมณฑลทอง หมู่ 19 ถนนพุทธมณฑล 2 แขวงศาลาธรรมสพน์ Thawi Watthana,Q9FP+7P Bangkok
134,K.M. Chemical Corporation Company Limited,13.7503538,100.2987016,"115 Moo5 Well Grow Industrial Estate, Bangna-Trad Raod, Tambol Bang Samak, Amphoe Bang Pakong, Chachoengsao, 24180","Q72X+4F Rai Khing, Sam Phran District, Nakhon Pathom"
135,"Phatnicha Chemical Ltd.,part.",13.6521867,100.4094302,"122 Phraya Monthat Ratchasi Phichit Yaek 31 Alley, 14 คลองบางบอน Bang Bon",MC25+VQ Bangkok
136,"Lee Chemical Products Co.,LTD.",13.5773167,100.2848833,"Na Di, Mueang Samut Sakhon District","H7GM+WX Na Di, Mueang Samut Sakhon District, Samut Sakhon"
137,บริษัท เอทีพี เคมีคอล จำกัด,13.594147,100.316242,"21/ ซอย 5 Khok Krabue, Mueang Samut Sakhon District","H8V8+MF Na Di, Mueang Samut Sakhon District, Samut Sakhon"
138,บริษัท แทแน้นท์ เคมิคอล จำกัด,13.6856728,100.4011366,"101 หมู่ที่ 7 108 ถ. กาญจนาภิเษก Lak Song, Bang Khae",MCP2+7F Bangkok
139,Witcorp Products Ltd.,13.7216901,100.4996058,"77/113 ชั้น 27 อาคาร สินสาธร กรุงธนบุรี Khlong Ton Sai, Khlong San",PFCX+MR Bangkok
140,บริษัท คริสตัล คลีน เคมิคอล จำกัด,13.6083737,100.4365647,"1015/81 Rama II Soi 47, Tha Kham, Bang Khun Thian",JC5P+8J Bangkok
141,บริษัท สามัคคีเคมิคอล จำกัด,13.6991765,100.4645748,"257 หมู่ที่ 1 Chom Thong Rd, Chom Thong",MFX7+MR Bangkok
142,บริษัท เคมมิสทรี จำกัด,13.5625339,100.1694154,"13/3 หมู่6 ถนนบ้านแพ้ว Chai Mongkhon, อำเภอเมือง","H579+2Q Chai Mongkhon, Mueang Samut Sakhon District, Samut Sakhon"
143,"D&G CHEMICAL AND TRADING CO., LTD.",13.7211041,100.4558774,"307 223 ถนน จรัญสนิทวงศ์ Bang Khun Si, Bangkok Noi",PFC4+C9 Bangkok
144,ร้านยา n.c chemicals co.ltd,14.0080562,100.4930564,"เลขที่ 97 Bang Luang, Mueang Pathum Thani District","2F5V+66 Bang Luang, Mueang Pathum Thani District, Pathum Thani"
145,บริษัท ซีล เคมีคอล จำกัด,13.7523323,100.2275864,135 หมู่ 2 ซอยศิริชัย 2 ถนนพุทธมลฑลสาย 7 ตำบลท่าตลาด Sam Phran District,"Q62H+W2 Tha Talat, Sam Phran District, Nakhon Pathom"
146,"L.C.T. Chemical & Machinery Co.,Ltd.",13.6507412,100.3256202,"26/9, Moo 2, Tambon Kaerai, Amphoe Kratumban, Samutsakorn, 74110","M82G+76 Suan Luang, Krathum Baen District, Samut Sakhon"
147,"K. Chemical Co.,Ltd",13.7785036,100.4780135,"3/80-82, Boromrachachonnanee Road, Aronamarin, Khet Bangkoknoi, Bangkok, 10700",QFHH+C6 Bangkok
148,"Siampvschemicals Co.,LTD.",13.7204738,100.4965701,"วีรวัฒน์ 86/1 อาคารไทย Thanon Krung Thon Buri, Bang Lamphu Lang, Khlong San",PFCW+5J Bangkok
149,บริษัท แกลลอท เคมีคอล จำกัด,13.5699081,100.266478,"Unnamed Road, Tha Sai, Mueang Samut Sakhon District","H798+XH Tha Sai, Mueang Samut Sakhon District, Samut Sakhon"
150,เคมีภัณฑ์ อุตสาหกรรม Lead-solution จำหน่าย เคมีอุตสาหกรรม ราคาถูก ขายราคาส่งโรงงาน,13.6812986,100.4992198,"ขาย เคมีภัณฑ์ อุตสาหกรรม ราคาส่ง บริษัท ลีดโซลูชั่น เอนจิเนียริ่ง จำกัด เลขที่ 67 ถนน สุขสวัสดิ์ 9 Bang Pakok, Rat Burana",MFJX+GM Bangkok
151,"VKK Industrial Co., Ltd",17.9685466,102.6139182,"Saylom Rd, Vientiane","XJ97+CH Vientiane, Laos"
152,โรงงานปุ๋ย,17.4373465,102.7751166,"Mu Mon, Mueang Udon Thani District","CQPG+W2 Mu Mon, Mueang Udon Thani District, Udon Thani"
153,5N Plus Laos,17.9077816,102.725418,Dongphonehae Village,"WP5G+45 Dongphosy, Laos"
154,หจก. ไอ เค้น ไซเอนทิฟิค,17.4360917,102.7927265,หมู่ที่ 7 420/3 ถนน เลี่ยงเมือง Mueang Udon Thani District,"CQPV+C3 Udon Thani, Mueang Udon Thani District, Udon Thani"
155,老挝石油化工股份有限公司,18.0218342,102.7442348,Unnamed Road,"2PCV+PM Vientiane, Laos"
156,บุญร่วมการเกษตร,17.662091,103.152618,188 หมู่ 9 นาคำ บ้านดุง,"M563+R2 Na Kham, Ban Dung District, Udon Thani"
157,ໂຮງງານຊີມັງ BMC,18.0533983,102.8541045,Laos,"3V33+9J Ban Woen, Laos"
158,ໂຮງງານ ຊີໂນໄຣໂດ,18.0987363,102.6017921,Vientiane,"3JX2+FP Vientiane, Laos"
159,บริษัทยูนิไลฟ์อินเตอร์เนชั่นแนล จำกัด (คลังสินค้าหนองคาย),17.8821119,102.7535841,"Nai Mueang, Mueang Nong Khai District","VQJ3+RC Nai Mueang, Mueang Nong Khai District, Nong Khai"
160,ບໍລິສັດນະຄອນຫຼວງອຸດສາຫະກຳເຫຼັກ,17.9148267,102.765374,ບ້ານ ຊຽງສ້ຽວ,"WQ78+W4 Dongphosy, Laos"
161,บ.ยูนิไลฟ์ สาขาอุดรธานี,17.432059,102.7859174,"เลข ที่ 399/ เมือง ต หนองบัว อ เมือง, 175/1 ซอย ถ.รอบหนองบัว ต.หมากแข้ง Mueang Udon Thani District","CQJP+R9 Udon Thani, Mueang Udon Thani District, Udon Thani"
162,"Lao Midori Safety Shoes Co., Ltd.",18.1649378,102.5012964,Ban Dông,"5G72+XG Ban Dông, Laos"
163,"SV Lao Chemical Exp- Imp Co, ltd",17.9952668,102.6169193,Vientiane,"XJW8+4Q Vientiane, Laos"
164,ໂຮງງານສີຂຽວສີ່ງແວດລ້ອມ ຜະລິດເມັດຢາງ,18.0543631,102.8450515,Laos,"3R3W+P2 Ban Houaxiang, Laos"
165,ก เกษตร,18.208394,103.1839632,"449 Moo 11, Rattanawapi District","655M+9H Rattanawapi, Rattanawapi District, Nong Khai"
166,Lao Chemical Trade Import-Export,18.0148087,102.7266183,Khoksaat Road,"2P7G+WJ Vientiane, Laos"
167,ร้านคนเห็นการเกษตร,17.7002311,102.442522,"249 Ban Phue, Ban Phue District","PC2V+32 Ban Phue, Ban Phue District, Udon Thani"
168,"lao chemical products trade import - export Co., ltd",18.016453,102.7242631,Unnamed Road,"2P8F+HP Vientiane, Laos"
169,SBL construction solutions,17.9328354,102.6167303,Vientiane,"WJM8+4M Vientiane, Laos"
170,"Hitachi Elevator Laos Co.,Ltd.",18.0579222,102.6656093,"Friendship Supermart Building (2nd Floor) No.13 South Rd. Xaysavang District, Vientiane","3M58+56 Vientiane, Laos"
171,บริษัท เคมมิสทรี จำกัด,13.5625339,100.1694154,"13/3 หมู่6 ถนนบ้านแพ้ว Chai Mongkhon, อำเภอเมือง","H579+2Q Chai Mongkhon, Mueang Samut Sakhon District, Samut Sakhon"
172,D. Thai Chemical Industry Company Limited,13.523596,100.197274,"39/119 Moo2 Samut Sakhon Industrial Estate, Rama II Raod, Tambol Bang Kachao, Amphoe Mueang, Samut Sakhon, 74000","G5FW+CW Bang Krachao, Mueang Samut Sakhon District, Samut Sakhon"
173,บริษัท ฟลุสสิคเคม จำกัด,13.5226387,100.149206,"8/9 ถนนวัดเกตุมฯ ซอย 1 Bang Tho Rat, Mueang Samut Sakhon District","G4FX+3M Bang Tho Rat, Mueang Samut Sakhon District, Samut Sakhon"
174,บริษัท ท็อปสตาร์ เคมิคอล อินดัสทรี,13.4949267,100.1916896,"สค.2020 Ban Bo, Mueang Samut Sakhon District","F5VR+XM Ban Bo, Mueang Samut Sakhon District, Samut Sakhon"
175,บริษัท สยามโกลบอล เคมิคอล จำกัด,13.5347226,100.1672698,"22/2 หมู่ ที่ 1 ถนน หลวง 3097 กม .2.3, Chai Mongkhon, Mueang Samut Sakhon District","G5M8+VW Chai Mongkhon, Mueang Samut Sakhon District, Samut Sakhon"
176,"Nichem Taiwan Technology Co.,Ltd.",13.540735,100.345682,"ถนน เจษฎาวิถี Khok Kham, Mueang Samut Sakhon District","G8RW+77 Khok Kham, Mueang Samut Sakhon District, Samut Sakhon"
177,บริษัท สยาม ทากามัตสึ เคมีคอล จำกัด,13.5480584,100.2201239,"66 หมู่2 39 Thailand Route 35, Bang Krachao, Mueang Samut Sakhon District","G6XC+62 Bang Krachao, Mueang Samut Sakhon District, Samut Sakhon"
178,"Miracle Chemical Industry Co., Ltd.",13.5505025,100.261434,"48/118 Rama II Frontage Rd, Tha Chin, Mueang Samut Sakhon District","H726+6H Tha Chin, Mueang Samut Sakhon District, Samut Sakhon"
179,บริษัท ไทย ซี ซิง จำกัด,13.5554141,100.2355516,"Tha Sai, Mueang Samut Sakhon District","H64P+56 Tha Sai, Mueang Samut Sakhon District, Samut Sakhon"
180,รถขนส่ง สารเคมี วัตถุอันตราย,13.525162,100.1472681,"84 หมู่1 ถนนพระรามที่ 2, Bang Tho Rat, เมือง","G4GW+3W Bang Tho Rat, Mueang Samut Sakhon District, Samut Sakhon"
181,V-Powder Tech,13.5505385,100.2273458,"1/58 ตำบล ท่าทราย Tambon Tha Sai, Mueang Samut Sakhon District","H62G+6W Tha Sai, Mueang Samut Sakhon District, Samut Sakhon"
182,บริษัท เจ แอล เชมโทนิค จำกัด,13.533068,100.163215,หมู่ที่ 1 9/9 ตำบลชัยมงคล Mueang Samut Sakhon District,"G5M7+67 Chai Mongkhon, Mueang Samut Sakhon District, Samut Sakhon"
183,อ่างหินการเกษตร,12.7212234,99.9098915,"12 เลขที่ 82 Sam Phraya, Cha-am District","PWC5+FX Sam Phraya, Cha-am District, Phetchaburi"
184,บริษัท อั๊คโซ่ โนเบล เพ้นท์ส (ประเทศไทย) จำกัด สาขาโค้ทติ้ง สมุทรสาคร,13.5504639,100.227089,"1/58 Tha Sai, Mueang Samut Sakhon District","H62G+5R Tha Sai, Mueang Samut Sakhon District, Samut Sakhon"
185,"Matrix Chemical Enterprise Co., Ltd.",13.5580691,100.3810062,"99, 228 หมู่2 Phanthai Norasing, Mueang Samut Sakhon District","H95J+6C Phanthai Norasing, Mueang Samut Sakhon District, Samut Sakhon"
186,วินคลีนโปร,13.510275,100.15329,35/17 หมู่6 ถนนพระราม2 บางโทรัด Mueang Samut Sakhon District,"G563+48 Bang Tho Rat, Mueang Samut Sakhon District, Samut Sakhon"
187,โรงงานบริษัท คอวินอินดัสทรี่ จำกัด,13.4799108,100.0646896,"27 8 Na Khok, Mueang Samut Sakhon District","F3H7+XV Na Khok, Mueang Samut Sakhon District, Samut Sakhon"
188,พัน ชุณหคันธรส,13.5283361,99.8134165,57 อำเภอเมือง Mueang Ratchaburi,none
189,NCI,13.5194002,100.1654598,"Bang Tho Rat, Mueang Samut Sakhon District","G598+Q5 Bang Tho Rat, Mueang Samut Sakhon District, Samut Sakhon"
190,โรงงาน อเมซอน อะโกร จำกัด,13.4778487,99.67952269999999,"33 8 Ang Hin, Pak Tho District","FMHH+4R Ang Hin, Pak Tho District, Ratchaburi"
191,บริษัท หมื่นเจริญ เคมีภัณฑ์ จำกัด,16.2736541,102.7853863,"99 Mittraphap Rd, Non Som Bun, Ban Haet District","7QFP+F5 Non Som Bun, Ban Haet District, Khon Kaen"
192,บจก.ยูนิลิเวอร์ อินเตอร์ เคมิคอล,16.288642,102.7430291,"หมู่ที่ 7 เลขที่ 54 Muni Sansoen Rd, Ban Ton, Phra Yuen District","7PQV+F6 Ban Ton, Phra Yuen District, Khon Kaen"
193,ร้าน ส.การเกษตร ปุ๋ย ยา เมล็ดพันธ์ และอุปกรณ์การเกษตร,16.7085311,102.9727414,28 หมู่ 17 บัวเงิน น้ำพอง,"PX5F+C3 Bua Ngoen, Nam Phong District, Khon Kaen"
194,ปุ๋ยอินทรีย์ขอนแก่น,16.4233293,102.8249142,98 ถนนดรุณสำราญ อำเภอเมือง Mueang Khon Kaen District,none
195,ห้างหุ้นส่วนจำกัด วัสดุปรับปรุงดินยอดดอย,16.4142937,102.8984075,"113/3 ม.6, ถ ถนน ขอนแก่น-ยางตลาด Phra Lap, Mueang Khon Kaen District","CV7X+P9 Phra Lap, Mueang Khon Kaen District, Khon Kaen"
196,ผาทอง กรุ๊ป,16.4527643,102.8409965,"17 หมู่ที่ 13 ถนน กสิกรทุ่งสร้าง Tambon Nai Mueang, Mueang Khon Kaen District","FR3R+49 Khon Kaen, Mueang Khon Kaen District, Khon Kaen"
197,บริษัท ราชาโยค ขอนแก่น,16.4432751,102.8059045,"621 Maliwan Rd, Ban Ped Sub-district, Mueang Khon Kaen District","CRV4+89 Khon Kaen, Mueang Khon Kaen District, Khon Kaen"
198,First-son เคมีและบรรจุภัณฑ์ ขอนแก่น,16.4257694,102.8331869,"56 Ruen Rom, Tambon Nai Mueang, Mueang Khon Kaen District","CRGM+87 Khon Kaen, Mueang Khon Kaen District, Khon Kaen"
199,ร้านไทยเจริญพาณิชย์สาขาโกสุมพิสัย,16.2478937,103.0722375,"277/4 หมู่ที่ 11 Hua Khwang, Kosum Phisai District","63XC+5V Hua Khwang, Kosum Phisai District, Maha Sarakham"
200,บริษัท นคร เคมิคอล จำกัด,16.7035783,103.0646559,"999 Nong Ko, Kranuan District","P337+CV Nong Ko, Kranuan District, Khon Kaen"
201,พีระศักดิ์ เคมีภัณฑ์ และ บรรจุภัณฑ์ขอนแก่น,16.4344457,102.8362072,"77 8-10 Glang Muang Rd, ในเมืองขอนแก่น Mueang Khon Kaen District","CRMP+QF Khon Kaen, Mueang Khon Kaen District, Khon Kaen"
202,ห้างหุ้นส่วนจำกัด พีเคซี อินสตรูเมนท์,16.44975,102.787228,"529/198 มลิวรรณ, ตำบลบ้านเป็ด อำเภอเมืองขอนแก่น จังหวัดขอนแก่น, 40000","CQXP+VV Khon Kaen, Mueang Khon Kaen District, Khon Kaen"
203,Union Science Trading,16.4648206,102.8242757,"455 14 Mittraphap Rd, Nai Mueang, Mueang Khon Kaen District","FR7F+WP Khon Kaen, Mueang Khon Kaen District, Khon Kaen"
204,KKU Smart Learning Academy,16.4741162,102.8278044,อาคารแก่นมอดินแดง มหาวิทยาลัยขอนแก่น Mueang Khon Kaen District,"FRFH+J4 Khon Kaen, Mueang Khon Kaen District, Khon Kaen"
205,"CHEMICAL & MACHINERY THAILAND Co., Ltd.",13.3507712,101.1598847,"23, 119, Nong Bon Daeng, Ban Bueng District","9525+8X Nong Bon Daeng, Ban Bueng District, Chon Buri"
206,DOW THAILAND GROUP & SCG-DOW GROUP,12.694991,101.151211,"Highway 36, Map Ta Phut, Mueang Rayong District","M5V2+XF Map Ta Phut, Mueang Rayong District, Rayong"
207,บริษัท 1595 จำกัด,13.3353053,101.1043533,"29, Map Phai, Ban Bueng District","84P3+4P Map Phai, Ban Bueng District, Chon Buri"
208,บริษัท อินเตอร์พรีทีฟ จำกัด (ระยอง),12.705983,101.124018,"5/9 ซอยจี 3 นิคมอุตสาหกรรมดับบลิวเอชเอตะวันออก (มาบตาพุด, ถนนปกรณ์สงเคราะห์ราษฎร์, Map Ta Phut, Mueang Rayong District","P44F+9J Huai Pong, Mueang Rayong District, Rayong"
209,DOW THAILAND GROUP & SCG DOW GROUP,12.6959116,101.1508565,Mueang Rayong District,"M5W2+98 Map Ta Phut, Mueang Rayong District, Rayong"
210,Aditya Birla Chemicals (Thailand) LTD (Advanced Materials) (Ware House),12.811558,101.1387211,"4 1 ถนน Huai Pong-Nong Bon Alley, Huai Pong, Mueang Rayong District","R46Q+JF Nikhom Phatthana, Nikhom Phatthana District, Rayong"
211,"Sekisui specialty chemicals (thailand) co.,ltd.",12.7073001,101.1123041,"Huai Pong, Mueang Rayong District","P446+WW Huai Pong, Mueang Rayong District, Rayong"
212,Goods Chemical,13.0494345,100.9354996,126/363 หมู่4 Bang Lamung District,"2WXP+Q5 Laem Chabang, Bang Lamung District, Chon Buri"
213,"Zeon Chemicals (Thailand) Co., LTd.",12.7023355,101.1308154,"Map Ta Phut, Mueang Rayong District","P42J+W8 Map Ta Phut, Mueang Rayong District, Rayong"
214,บริษัท เซียว เซียง เคมีคอล อินดัสทรี (ไทยแลนด์) จำกัด,12.9239466,101.1073844,"เลขที่ 7/5, หมู่ที่ 4 Phananikhom, Nikhom Phatthana District","W4F4+HX Phananikhom, Nikhom Phatthana District, Rayong"
215,บริษัท อาทิตย์เคมีภัณฑ์ จำกัด,12.7288897,101.0638624,"123/3-4-5 Sukhumvit Rd, Ban Chang, Ban Chang District","P3H7+HG Ban Chang, Ban Chang District, Rayong"
216,Dow Chemical Thailand Ltd.,12.6985254,101.1512092,"8 ถนนไอ4 นิคมอุตสาหกรรม Map Ta Phut, Mueang Rayong District","M5X2+CF Map Ta Phut, Mueang Rayong District, Rayong"
217,"xiao xiang chemical industry (thailand) co., ltd.",12.9240474,101.1073191,"7/5 Moo.4, T.Phana Nikhom, A.Nikhom Phatthana, Rayong 21180 7/5 หมู่ที่ 4 Phananikhom, Nikhom Phatthana District","W4F4+JW Phananikhom, Nikhom Phatthana District, Rayong"
218,"Dow chemical AIE plant, Trainning",12.6969856,101.0930086,"Ban Chang, Ban Chang District","M3WV+Q6 Ban Chang, Ban Chang District, Rayong"
219,"Innex Chemical Co.,Ltd",13.2343809,100.9640194,53/45 หมู่ 6 บางพระ Si Racha District,"6XM7+QJ Bang Phra, Si Racha District, Chon Buri"
220,"AGC Chemicals (Thailand) Co.,Ltd",12.6958201,101.1301759,"4 ซอยจี-12 ถนนปกรณ์สงเคราะห์ราษฎร์ Map Ta Phut, Mueang Rayong District","M4WJ+83 Map Ta Phut, Mueang Rayong District, Rayong"
221,"Reaxo Pharma & Chem Co., Ltd.",12.7190672,101.1117546,"Huai Pong, Mueang Rayong District","P496+JP Huai Pong, Mueang Rayong District, Rayong"
222,บ.Carbide Chemical,12.6988205,101.1222581,"Huai Pong, Mueang Rayong District","M4XC+GW Huai Pong, Mueang Rayong District, Rayong"
223,GC Glycol,12.7021334,101.1292902,"9, 9/1 ถนน ปกรณ์ สงเคราะห์ราษฎร์ Map Ta Phut, Mueang Rayong District","P42H+VP Map Ta Phut, Mueang Rayong District, Rayong"
224,"ZEON CHEMICALS ASIA CO.,LTD.",12.7113886,101.1123335,"H-49 Block, Hemaraj Eastern Industrial Estate, Huai Pong, Mueang Rayong District","P466+HW Huai Pong, Mueang Rayong District, Rayong"
225,Northern Chemicals,18.8074282,98.9719289,"Chang Phueak, Mueang Chiang Mai District","RX4C+XQ Chiang Mai, Mueang Chiang Mai District, Chiang Mai"
226,World Chemical,18.7625521,98.99455329999999,"ป่าแดด 261/3-6, ถนนมหิดล, ตำบลป่าแดด อำเภอเมืองเชียงใหม่ เมือง","QX7V+2R Pa Daet Sub-district, Mueang Chiang Mai District, Chiang Mai"
227,BBT CHEMICAL,18.741392,98.9721024,"175/1 Somphot Chiang Mai 700 Pi Rd, Pa Daet Sub-district, Mueang Chiang Mai District","PXRC+HR Pa Daet Sub-district, Mueang Chiang Mai District, Chiang Mai"
228,หจก.นอร์ทเทอร์นเคมิเคิล แอนด์ กลาสแวร์,18.8073057,98.9714965,"Chang Phueak, Mueang Chiang Mai District","RX4C+WH Chiang Mai, Mueang Chiang Mai District, Chiang Mai"
229,ร้านป่าไผ่การเกษตรและเคมีภัณฑ์,18.827377,99.18038399999999,หมู่ 2 บ้าน ป่า ไผ่ แม่โป่ง ดอยสะเก็ด,"R5GJ+X5 Mae Pong, Doi Saket District, Chiang Mai"
230,"บริษัท เคมีก้า อินโนเวชั่น จำกัด © Chemika Innovation Co., Ltd.",18.7336348,99.1121656,"หมู่ที่ 8 244 Chae Chang, San Kamphaeng District","P4M6+FV San Kamphaeng, San Kamphaeng District, Chiang Mai"
231,World Chemical,18.5532165,99.0474163,"109 หมู่ 2 Pa Sak, Mueang Lamphun District","H23W+7X Pa Sak, Mueang Lamphun District, Lamphun"
232,"United Chemical and Trading Co.,Ltd.",18.7561899,99.0005401,โครงการ K-Park เลขที่ 111 18 ซอย 2 อ.เมือง,"Q242+F6 Pa Daet Sub-district, Mueang Chiang Mai District, Chiang Mai"
233,บมจ.พีรพัฒน์ เทคโนโลยี สาขาเชียงใหม่,18.7429878,99.0081944,"369 หมู่ 1 ถนนวงแหวนรอบกลาง Nong Phueng, Saraphi District","P2V5+57 Nong Phueng, Saraphi District, Chiang Mai"
234,M. V. K. Chemical Company Limited,18.6669544,99.0935875,"Ban Thi, Ban Thi District","M38V+QC Ban Thi, Ban Thi District, Lamphun"
235,United Chemical and Trading Company Limited,18.7555408,99.0007262,"111/18 โครงการ K-Park Mahidol Rd, อ.เมือง","Q242+67 Pa Daet Sub-district, Mueang Chiang Mai District, Chiang Mai"
236,"C.M. Chemical & Lab Supplies LTD.,PART",18.807805,98.9789196,"11 Chotana Soi 6, ต.ช้างเผือก Mueang Chiang Mai District","RX5H+4H Chiang Mai, Mueang Chiang Mai District, Chiang Mai"
237,053 Chemical Brothers Barber & Salon,18.7956663,98.9715576,"16/1 Siri Mangkalajarn Rd Lane 5, Tambon Su Thep, อ.เมือง","QXWC+7J Chiang Mai, Mueang Chiang Mai District, Chiang Mai"
238,Bavornpon Chemical,18.6397746,99.04178789999999,232 อำเภอเมือง Mueang Lamphun District,"J2QR+WP Umong, Mueang Lamphun District, Lamphun"
239,"M.V. Chemical Co., Ltd.",18.66771,99.093396,"Ban Thi, Ban Thi, Lamphun, 51180","M39V+39 Ban Thi, Ban Thi District, Lamphun"
240,ไพศาล พาณิชย์ การเกษตร,18.6856643,99.14077879999999,"15 ม.10 Huai Yap, Ban Thi District","M4PR+78 Huai Yap, Ban Thi District, Lamphun"
241,ห้างหุ้นส่วนจำกัดนอร์ทเทอร์นเคมิเคิล,18.8073208,98.9714793,154/2 หมู่ 2 ถ ถนน ซุปเปอร์ไฮเวย์ เชียงใหม่-ลำปาง Mueang Chiang Mai District,"RX4C+WH Chiang Mai, Mueang Chiang Mai District, Chiang Mai"
242,Paphada Cosmetic,18.7808318,99.0910883,"Ton Pao, San Kamphaeng District","Q3JR+8C Mae Khue, Doi Saket District, Chiang Mai"
243,ไอบัท เอเซีย จำกัด,18.84411,99.0861012,"133/110 Soi Mu Ban Ban Thawi Chok 3, Talat Khwan, Doi Saket District","R3VP+JC Talat Khwan, Doi Saket District, Chiang Mai"
244,เชียงใหม่โอ.พี.เอส. เคมีภัณฑ์,18.7892811,99.0085811,"373/14 ซอย เชียงใหม่-ลำพูน 3 Wat Ket, Mueang Chiang Mai District","Q2Q5+PC Chiang Mai, Mueang Chiang Mai District, Chiang Mai"
245,Pro Chemical,7.883537999999999,98.3875853,"96 ภูเก็ตวิลล่า 1 Yaowarat Rd, Mueang Phuket District","V9MQ+C2 Phuket, Mueang Phuket District, Phuket"
246,บริษัท เอส.ที.เคมีธุรกิจ จำกัด (สาขาภูเก็ต),8.0028314,98.31188619999999,"4030, Soi Cherngtalay 2, Choeng Thale, Thalang District","2836+4Q Choeng Thale, Thalang District, Phuket"
247,"P.S.R.CHEMICAL CO.,LTD.",7.867417400000001,98.3493841,"35 M.3 Chaofa E Rd, Wichit, Mueang Phuket District","V88X+XQ Wichit, Mueang Phuket District, Phuket"
248,แอ็กโคแล็บ,7.8914214,98.3858779,"Talat Yai, Mueang Phuket District","V9RP+H9 Phuket, Mueang Phuket District, Phuket"
249,บริษัท โปรแล็บ เคมิคอล อิควิปเมนท์ แอนด์ ซัพพลาย จำกัด,7.8591,98.3512052,"10/175 Wichit, Mueang Phuket District","V952+JF Chalong, Mueang Phuket District, Phuket"
250,"Narai International Chemical Co., Ltd.",8.272081,98.30367199999999,"ทางหลวงแผ่นดินหมายเลข 402, Tambon Khok Kloi, ตะกั่วทุ่ง","78C3+RF Khok Kloi, Takua Thung District, Phang-nga"
251,"P.S.R CHEMICAL CO.,LTD.",7.867432099999999,98.3493807,"35 M, Soi 3, Wichit, Mueang Phuket District","V88X+XQ Wichit, Mueang Phuket District, Phuket"
252,Kung in Theque,8.276076699999999,98.3051066,"Khok Kloi, Takua Thung District","78G4+C2 Khok Kloi, Takua Thung District, Phang-nga"
253,บมจ.พีรพัฒน์ เทคโนโลยี ศูนย์ธุรกิจภูเก็ต,7.8459976,98.33458759999999,7/29 หมู่ 7 ถนนเจ้าฟ้านอก ต.ฉลง Mueang Phuket District,"R8WM+9R Chalong, Mueang Phuket District, Phuket"
254,Phuket Inter Chemical,7.884124099999998,98.3975411,"185, 45-46 Phangnga Rd, Tambon Talat Yai, Mueang Phuket District","V9MX+J2 Phuket, Mueang Phuket District, Phuket"
255,ร้านดี. เกษตรรุงเรือง,8.0564084,98.32345099999999,"Thep Krasat Tri-Nai Yang Rd, เทพกระษัตรี Thalang District","384F+H9 Thep Krasatti, Thalang District, Phuket"
256,ร้านชัยทวีท่าเรือ,7.9850742,98.35944029999999,"Si Sunthon, Thalang District","X9P5+2Q Si Sunthon, Thalang District, Phuket"
257,Phuket Chemical & Machinery,7.866997,98.3715059,"หมู่ที่ 3 10/47 Wichit, Mueang Phuket District","V98C+QJ Wichit, Mueang Phuket District, Phuket"
258,Phuket Chemical Argiculture Ltd.,7.916990199999999,98.39405099999999,"45/4 ถนน เทพกระษัตรี (เยื้องสถานีขนส่งแห่งที่ 2) Ratsada, Mueang Phuket District","W98V+QJ Ratsada, Mueang Phuket District, Phuket"
259,"Phuket Chemical and Machinery Co.,Ltd.",7.861367199999999,98.34884029999999,"10, 178 Soi 5, Wichit, เมือง","V86X+GG Chalong, Mueang Phuket District, Phuket"
260,คลีนพลัสเคมีคอล,7.8782664,98.37014309999999,"63/466 Wichit, เมือง","V9HC+83 Wichit, Mueang Phuket District, Phuket"
261,Chem-Dry Cleaning Service,8.001021699999999,98.3448252,"55/309 Moo 1 Thepkasattri Road T Srisoonthorn, A. Thalang, Thalang District","282V+CW Si Sunthon, Thalang District, Phuket"
262,บริษัท เอส.ที.เคมีธุรกิจ จำกัด,8.0096683,98.315595,50/67 ม.4 เชิงทะเล Thalang District,"2858+V6 Choeng Thale, Thalang District, Phuket"
263,"Karcher Store by Topline Center Co., Ltd",7.905859,98.3753837,"92 หมู่บ้านภูเก็ตวิลล่า 1 ซอย Yaowarat 1 Rd, Mueang Phuket District","W94G+85 Ratsada, Mueang Phuket District, Phuket"
264,Pro Cleaning Company Limited,7.905675500000001,98.37589880000002,"61 Yaowarat Rd, Talat Yai, Mueang Phuket District","W94G+79 Ratsada, Mueang Phuket District, Phuket"
265,"Chemical House & Lab Instrument Co.,LTD",13.7615811,100.6028474,"98 ซอย รามคำแหง 21 Phlabphla, Wang Thonglang",QJ63+J4 Bangkok
266,Chemical Asia Company Limited,13.6606763,100.6272467,"12/15 Sukhumvit Rd, Bang Na , 10260, Bang Na",MJ6G+7V Bangkok
267,Indorama Chemicals (Thailand) Ltd.,13.7428327,100.5615333,"75/64-65 Ocean Tower 2, 28th Floor, Sukhumvit 19, Asoke Rd., Klongtoey Nuer Wattana, Bangkok 10110",PHV6+4J Bangkok
268,MC Industrial Chemical Company Limited,13.7408246,100.505514,"180-184 ถนน ราชวงศ์ Chakkrawat, Samphanthawong",PGR4+86 Bangkok
269,Superior Chemical Industry (Thailand) Company Limited,13.7680492,100.6089008,Bangkok,QJ95+6H Bangkok
270,"Siam Chemical Industry Co., Ltd.",13.7409059,100.5615844,"159/34 Serm-Mit Tower 20th Floor, Road (Asoke), North Klongtoey, Wattana,, 21 Sukhumvit Rd",PHR6+9J Bangkok
271,President Chemical Company Limited,13.729074,100.5260154,"54/15-17 Thanon Surawong, Si Phraya, Bang Rak",PGHG+JC Bangkok
272,"บริษัท วี.ซี. เคมิคอลส์ จำกัด V.C. Chemicals Co., Ltd",13.7075456,100.5318968,"178 Soi Chan 16, Thung Wat Don, Sathon",PG5J+2Q Bangkok
273,"NP CHEMICAL SUPPLY CO.,LTD.",13.7732422,100.3868648,เลขที่ 42/1 ซอยมณฑลทอง หมู่ 19 ถนนพุทธมณฑล 2 แขวงศาลาธรรมสพน์ Thawi Watthana,Q9FP+7P Bangkok
274,บจก. ดาว เคมิคอล ประเทศไทย,13.71804,100.590477,"75 อาคารไวท์กรุ๊ป 2, ถนนสุขุมวิท 42, แขวงพระโขนง เขตคลองเตย กทม, 10110",PH9R+65 Bangkok
275,SCG Chemicals,13.8058794,100.5375315,"1 Siam Cement Alley, Bang Sue",RG4Q+92 Bangkok
276,Eastman Chemical Company,13.7586884,100.5678816,"33/4 The 9th Tower Grand Rama 9, Tower A, 24th Fl., TNA 05, Rama IX Rd, Huai Khwang",QH59+F5 Bangkok
277,"S.M.Chemical Supplies Co.,Ltd.",13.7887567,100.6288392,3/1-2 SMC Building Ladprao 101 Raod Klongjan Bang Kapi District,QJQH+GG Bangkok
278,Civic Chemical LP.,13.687625,100.6872808,28/1 ซ.เฉลิมพระเกียรติฯ 30 แยก 15 แขวงดอกไม้,MMQP+2W Bangkok
279,"Thepthai Chemical Corp.,Ltd.",13.6698401,100.6219947,"หมู่ที่ 12 21/573 Bang Na-Trat Frontage Rd, Bang Na",MJ9C+WQ Bangkok
280,บริษัท เอส.เค.เอ็ม.เคมีคอล จำกัด,13.7490091,100.5112416,"45/7 ซอยเฉลิมเขตร์ 2 ถนนเฉลิมเขตร์ 3 Wat Thepsirin, Pom Prap Sattru Phai",none
281,T.J.K. Chemical Company Limited,13.662544,100.6374942,103 ซอย 7 Bang Na,MJ7P+2X Bangkok
282,"Petch Thai Chemical Co.,Ltd.",13.7027599,100.5403965,"15 Naradhiwat Rajanagarindra Rd, Chong Nonsi, Yan Nawa",PG3R+45 Bangkok
283,Nitro Chemical Industry LTD. (Branch 1),13.747523,100.5194937,"24 Rama I Rd, Rong Muang, Pathum Wan District",PGX9+2Q Bangkok
284,"Hanwha Chemical (Thailand) Co.,Ltd.",13.5521553,100.7900146,"377 หมู่ 17 Bang Na-Trat Rd, Bang Sao Thong, Bang Sao Thong District","HQ2R+V2 Bang Sao Thong, Bang Sao Thong District, Samut Prakan"
285,"Chemical House & Lab Instrument Co.,LTD",13.7615811,100.6028474,"98 ซอย รามคำแหง 21 Phlabphla, Wang Thonglang",QJ63+J4 Bangkok
286,Chemical Asia Company Limited,13.6606763,100.6272467,"12/15 Sukhumvit Rd, Bang Na , 10260, Bang Na",MJ6G+7V Bangkok
287,Indorama Chemicals (Thailand) Ltd.,13.7428327,100.5615333,"75/64-65 Ocean Tower 2, 28th Floor, Sukhumvit 19, Asoke Rd., Klongtoey Nuer Wattana, Bangkok 10110",PHV6+4J Bangkok
288,MC Industrial Chemical Company Limited,13.7408246,100.505514,"180-184 ถนน ราชวงศ์ Chakkrawat, Samphanthawong",PGR4+86 Bangkok
289,Superior Chemical Industry (Thailand) Company Limited,13.7680492,100.6089008,Bangkok,QJ95+6H Bangkok
290,"Siam Chemical Industry Co., Ltd.",13.7409059,100.5615844,"159/34 Serm-Mit Tower 20th Floor, Road (Asoke), North Klongtoey, Wattana,, 21 Sukhumvit Rd",PHR6+9J Bangkok
291,President Chemical Company Limited,13.729074,100.5260154,"54/15-17 Thanon Surawong, Si Phraya, Bang Rak",PGHG+JC Bangkok
292,"บริษัท วี.ซี. เคมิคอลส์ จำกัด V.C. Chemicals Co., Ltd",13.7075456,100.5318968,"178 Soi Chan 16, Thung Wat Don, Sathon",PG5J+2Q Bangkok
293,"NP CHEMICAL SUPPLY CO.,LTD.",13.7732422,100.3868648,เลขที่ 42/1 ซอยมณฑลทอง หมู่ 19 ถนนพุทธมณฑล 2 แขวงศาลาธรรมสพน์ Thawi Watthana,Q9FP+7P Bangkok
294,บจก. ดาว เคมิคอล ประเทศไทย,13.71804,100.590477,"75 อาคารไวท์กรุ๊ป 2, ถนนสุขุมวิท 42, แขวงพระโขนง เขตคลองเตย กทม, 10110",PH9R+65 Bangkok
295,SCG Chemicals,13.8058794,100.5375315,"1 Siam Cement Alley, Bang Sue",RG4Q+92 Bangkok
296,Eastman Chemical Company,13.7586884,100.5678816,"33/4 The 9th Tower Grand Rama 9, Tower A, 24th Fl., TNA 05, Rama IX Rd, Huai Khwang",QH59+F5 Bangkok
297,"S.M.Chemical Supplies Co.,Ltd.",13.7887567,100.6288392,3/1-2 SMC Building Ladprao 101 Raod Klongjan Bang Kapi District,QJQH+GG Bangkok
298,Civic Chemical LP.,13.687625,100.6872808,28/1 ซ.เฉลิมพระเกียรติฯ 30 แยก 15 แขวงดอกไม้,MMQP+2W Bangkok
299,"Thepthai Chemical Corp.,Ltd.",13.6698401,100.6219947,"หมู่ที่ 12 21/573 Bang Na-Trat Frontage Rd, Bang Na",MJ9C+WQ Bangkok
300,บริษัท เอส.เค.เอ็ม.เคมีคอล จำกัด,13.7490091,100.5112416,"45/7 ซอยเฉลิมเขตร์ 2 ถนนเฉลิมเขตร์ 3 Wat Thepsirin, Pom Prap Sattru Phai",none
301,T.J.K. Chemical Company Limited,13.662544,100.6374942,103 ซอย 7 Bang Na,MJ7P+2X Bangkok
302,Nitro Chemical Industry LTD. (Branch 1),13.747523,100.5194937,"24 Rama I Rd, Rong Muang, Pathum Wan District",PGX9+2Q Bangkok
303,Pitiwat Chemical Service,13.743417,100.5448178,"Ploen Chit Tower, 898 Phloen Chit Rd, Pathum Wan District",PGVV+9W Bangkok
304,Utica Chemical Co. Ltd.,13.719568,100.6022209,"184 Pridi Banomyong 14 Alley, Phra Khanong Nuea, Watthana",PJ92+RV Bangkok
